{"address":"上海市黄浦区浙江南路78号东新大厦216室","latitude":31.2288,"name":"nook诺克密室&DIY多肉(人民广场店)","id":1,"longitude":121.48206}
{"address":"上海市长宁区江苏路458号1层116","latitude":31.218975,"name":"星巴克(江苏店)","id":2,"longitude":121.43091}
{"address":"上海市黄浦区金陵东路569号汇通大厦804室","latitude":31.226982,"name":"极道真人密室逃脱(人民广场大世界总店)","id":3,"longitude":121.48103}
{"address":"上海市宝山区上大路99号","latitude":31.312284,"name":"I high club","id":4,"longitude":121.39542}
{"address":"上海市静安区胶州路941号长久商务中心2203室","latitude":31.237585,"name":"小仙屋剧情密室逃脱","id":5,"longitude":121.436646}
{"address":"上海市静安区西康路618号华通大厦13楼D座","latitude":31.23506,"name":"魔方剧情真人密室逃脱(静安店)","id":6,"longitude":121.446335}
{"address":"上海市黄浦区福州路465号上海书城6楼贝亦迪科技体验馆","latitude":31.23335,"name":"A9真人密室逃脱(黄浦店)","id":7,"longitude":121.48146}
{"address":"上海市杨浦区五角场大学路161号701室","latitude":31.304022,"name":"Charles' VR 虚拟现实体验馆","id":8,"longitude":121.509865}
{"address":"上海市黄浦区浙江路229号百米香榭街354店铺","latitude":31.233591,"name":"iDream真人密室逃脱(百米香榭店)","id":9,"longitude":121.479}
{"address":"上海市长宁区长宁路890号玫瑰坊1楼88B","latitude":31.219374,"name":"1617Cafe(中山公园龙之梦服务区)","id":10,"longitude":121.41786}
{"address":"上海市浦东新区浦东南路1088号4F-05","latitude":31.228285,"name":"MC精品真人密室逃脱(八佰伴店)","id":11,"longitude":121.515366}
{"address":"上海市杨浦区大学路103号802室","latitude":31.304335,"name":"初鱼vr咖-虚拟现实体验馆","id":12,"longitude":121.51079}
{"address":"上海市长宁区宣化路313号","latitude":31.216875,"name":"Boom Cafe","id":13,"longitude":121.42288}
{"address":"上海市长宁区中山公园附近","latitude":31.215496,"name":"nook诺克密室逃脱(长宁店)","id":14,"longitude":121.4217}
{"address":"上海市杨浦区翔殷路1099号4楼","latitude":31.30048,"name":"暗黑魔盒集中营(鬼屋密室)","id":15,"longitude":121.51839}
{"address":"上海市长宁区长宁路988号花园大厦6楼606室","latitude":31.21871,"name":"Min魔魔岛密室逃脱(中山公园店)","id":16,"longitude":121.417885}
{"address":"上海市长宁区长宁路823号1楼","latitude":31.21866,"name":"COSTA COFFEE(上海长宁新世界)","id":17,"longitude":121.42047}
{"address":"上海市宝山区锦秋路699弄二区一排121号","latitude":31.32106,"name":"因奥密室","id":18,"longitude":121.38976}
{"address":"上海市长宁区长宁路988号花园大厦903","latitude":31.21867,"name":"aMaze真人密室逃脱","id":19,"longitude":121.41791}
{"address":"上海市长宁区长宁路1018号龙之梦购物中心1楼1075号铺","latitude":31.21966,"name":"MANGOSIX(长宁龙之梦店)","id":20,"longitude":121.41745}
{"address":"上海市长宁区定西路1100号辽油大厦101室","latitude":31.2117,"name":"ZOOCOFFEE(定西路店)","id":21,"longitude":121.42346}
{"address":"上海市静安区长寿路181弄日月星辰2号楼1007室","latitude":31.241724,"name":"贝克街5号密室逃脱","id":22,"longitude":121.4421}
{"address":"上海市长宁区定西路1310弄18号303","latitude":31.215818,"name":"Zero VR零维虚拟现实体验馆","id":23,"longitude":121.42359}
{"address":"上海市杨浦区大学路33号701室loft37运动酒吧楼上","latitude":31.3047,"name":"Dobe密室逃脱(杨浦大学路店)","id":24,"longitude":121.5117}
{"address":"上海市浦东新区张杨路628弄东明广场2号楼2203室","latitude":31.228123,"name":"DTR梦空间密室逃脱(八佰伴店)","id":25,"longitude":121.52058}
{"address":"上海市长宁区长宁路890号玫瑰坊1楼","latitude":31.219257,"name":"猫小姐的店","id":26,"longitude":121.41781}
{"address":"上海市长宁区长宁路890号玫瑰坊1F-72","latitude":31.21922,"name":"Forest Rose Afternoon Tea","id":27,"longitude":121.418724}
{"address":"上海市长宁区长宁路405弄1号地下1层","latitude":31.22307,"name":"白兔子密室逃脱","id":28,"longitude":121.427055}
{"address":"上海市杨浦区大学路33号601室loft37运动酒吧楼上","latitude":31.304789,"name":"海盗奇兵密室逃脱(五角场店)","id":29,"longitude":121.511765}
{"address":"上海市长宁区长宁路1018号龙之梦购物中心4楼4202","latitude":31.218613,"name":"第五空间咖啡馆","id":30,"longitude":121.41633}
{"address":"上海市长宁区长宁路1018号龙之梦购物中心1F-1055","latitude":31.21874,"name":"Vital Tea(长宁龙之梦店)","id":31,"longitude":121.41703}
{"address":"上海市黄浦区人民广场迪美购物中心B1层","latitude":31.228691,"name":"探险者世界(VR体验馆)","id":32,"longitude":121.47345}
{"address":"上海市浦东新区张杨路628弄东明广场3号2C","latitude":31.22793,"name":"阿拉丁真人密室逃脱(八佰伴店)","id":33,"longitude":121.52024}
{"address":"上海市静安区长寿路457号2楼C室","latitude":31.23879,"name":"JOJO真人密室逃脱","id":34,"longitude":121.43657}
{"address":"上海市长宁区江苏路54弄18号后门","latitude":31.223377,"name":"Daisy花&咖啡","id":35,"longitude":121.42814}
{"address":"上海市杨浦区国济路20号七楼","latitude":31.30196,"name":"Let it go台球密室逃脱","id":36,"longitude":121.51599}
{"address":"上海市静安区石门二路333弄3号振安广场恒安大厦22楼E座","latitude":31.235432,"name":"趣密室 & DIY手工坊","id":37,"longitude":121.4598}
{"address":"上海市长宁区愚园路1208号","latitude":31.219221,"name":"好久不读 long time no read","id":38,"longitude":121.42646}
{"address":"上海市杨浦区大学路锦创路20号1101室创智66商务楼内（一兆韦德健身馆旁）","latitude":31.304209,"name":"VR family-虚拟现实体验馆","id":39,"longitude":121.50922}
{"address":"上海市杨浦区四平路2500号东方商厦楼上金岛大厦1305室","latitude":31.298822,"name":"77密室逃脱+真人CS(五角场店)","id":40,"longitude":121.515465}
{"address":"上海市杨浦区大学路302号702室","latitude":31.30317,"name":"毛利侦探事务所密室逃脱","id":41,"longitude":121.50763}
{"address":"上海市虹口区国权路与邯郸路交叉口","latitude":31.297478,"name":"颠九宫真人游戏体验馆(杨浦店)","id":42,"longitude":121.50096}
{"address":"上海市长宁区武夷路339号","latitude":31.21347,"name":"慢时光MYTIMECAFE","id":43,"longitude":121.42406}
{"address":"上海市黄浦区普安路189号曙光大厦18D","latitude":31.22244,"name":"月球剧情密室逃脱(淮海中路店)","id":44,"longitude":121.47889}
{"address":"上海市杨浦区翔殷路1128号8楼B4、B5","latitude":31.30103,"name":"MC精品真人密室逃脱(五角场店)","id":45,"longitude":121.51691}
{"address":"上海市长宁区愚园路1391号3楼","latitude":31.218843,"name":"西塞密室(长宁店)","id":46,"longitude":121.42288}
{"address":"上海市长宁区南京西路1788号1788广场F201","latitude":31.22278,"name":"暗黑迷宫第三季","id":47,"longitude":121.44376}
{"address":"上海市长宁区定西路1555号酒店2楼","latitude":31.218554,"name":"巴黎春天新世界酒店浓咖啡","id":48,"longitude":121.4211}
{"address":"上海市杨浦区大学路锦创路26号1102室创智66商务楼内","latitude":31.30425,"name":"GIVE ME FIVE剧情密室逃脱(大学路店)","id":49,"longitude":121.50918}
{"address":"上海市杨浦区大学路锦创路26号1602室创智66商务楼内","latitude":31.304174,"name":"nook诺克剧情密室 & VR虚拟现实体验馆(五角场店)","id":50,"longitude":121.509315}
{"address":"上海市长宁区安化路492号德必易园多媒体创意园区106室","latitude":31.215342,"name":"Home Garden","id":51,"longitude":121.4202}
{"address":"上海市长宁区江苏路458号112室舜元企业发展大厦","latitude":31.218548,"name":"TIK  TOK","id":52,"longitude":121.43106}
{"address":"上海市杨浦区军工路100号","latitude":31.281694,"name":"Running基地","id":53,"longitude":121.558266}
{"address":"上海市长宁区长宁路999号兆丰广场","latitude":31.21765,"name":"太平洋咖啡(兆丰广场店)","id":54,"longitude":121.41788}
{"address":"上海市长宁区愚园路1329号","latitude":31.21873,"name":"essence casa","id":55,"longitude":121.42449}
{"address":"上海市嘉定区白丽路61号","latitude":31.27899,"name":"大华虎城第三空间","id":56,"longitude":121.35216}
{"address":"上海市静安区大田路129号嘉发大厦A座25楼G","latitude":31.23294,"name":"FullHouse桌游棋牌密室(南京西路店)","id":57,"longitude":121.46391}
{"address":"上海市黄浦区云南南路180号淮云大厦8楼","latitude":31.2265,"name":"aMaze真人密室逃脱(人民广场大世界店)","id":58,"longitude":121.48128}
{"address":"上海市长宁区安化路492号易园","latitude":31.21529,"name":"智源咖啡(中山公园店)","id":59,"longitude":121.42034}
{"address":"上海市黄浦区淮海中路","latitude":31.22792,"name":"跑男开始了 runningman(公司活动，年会撕名牌)","id":60,"longitude":121.49525}
{"address":"上海市长宁区武夷路418弄(近定西路)1号武定大厦203室","latitude":31.212627,"name":"ASA亚撒真人密室逃脱","id":61,"longitude":121.421974}
{"address":"上海市杨浦区创智坊大学路302号701室","latitude":31.303108,"name":"Crazycube颠九宫密室逃脱(大学路店)","id":62,"longitude":121.50754}
{"address":"上海市长宁区长宁路1018号龙之梦购物中心1楼1073号铺","latitude":31.218727,"name":"星巴克(龙之梦2店)","id":63,"longitude":121.416916}
{"address":"上海市长宁区延平路69号延平大厦701室","latitude":31.227833,"name":"Captain.C真人密室逃脱","id":64,"longitude":121.44161}
{"address":"上海市杨浦区大学路292号602室","latitude":31.30327,"name":"aMaze真人密室逃脱(五角场店)","id":65,"longitude":121.50777}
